[{
  "id": 24,
  "name": "AmsterdamPack",
  "lat": 52.3666969,
  "lng": 4.8945398,
  "created_at": "2019-12-24 09:03:58",
  "updated_at": "2020-01-02 11:22:32"
}, {
  "id": 25,
  "name": "AmersfoortPack",
  "lat": 52.1561113,
  "lng": 5.387826599999999,
  "created_at": "2019-12-24 09:04:50",
  "updated_at": "2019-12-27 11:01:28"
}, {
  "id": 28,
  "name": "BredaPack",
  "lat": 51.5719149,
  "lng": 4.768323,
  "created_at": "2019-12-24 09:09:36",
  "updated_at": "2019-12-24 09:09:36"
}, {
  "id": 38,
  "name": "Wolfpack",
  "lat": 51.449398,
  "lng": 5.494966,
  "created_at": "2019-12-24 15:41:02",
  "updated_at": "2019-12-24 16:33:11"
}, {
  "id": 42,
  "name": "test",
  "lat": 51.0280231,
  "lng": 5.7812382,
  "created_at": "2020-01-06 13:55:04",
  "updated_at": "2020-01-06 13:55:13"
}, {
  "id": 43,
  "name": "Testttttt",
  "lat": 38.9349542,
  "lng": -94.6685088,
  "created_at": "2020-01-06 13:56:08",
  "updated_at": "2020-01-06 13:56:08"
}, {
  "id": 44,
  "name": "Leanne",
  "lat": 38.9349542,
  "lng": -94.6685088,
  "created_at": "2020-01-06 13:56:34",
  "updated_at": "2020-01-06 13:56:34"
}, {
  "id": 54,
  "name": "packTestxx",
  "lat": 4.125,
  "lng": 55.222,
  "created_at": "2020-01-23 13:59:52",
  "updated_at": "2020-01-23 13:59:52"
}, {
  "id": 55,
  "name": "packTestzzzz",
  "lat": 4.125,
  "lng": 55.222,
  "created_at": "2020-01-23 14:00:56",
  "updated_at": "2020-01-23 14:00:56"
}, {
  "id": 56,
  "name": "packTestqqqq",
  "lat": 4.125,
  "lng": 55.222,
  "created_at": "2020-01-23 14:01:14",
  "updated_at": "2020-01-23 14:01:14"
}]